[
  {
    "name": "Lilavati Hospital",
    "type": "hospital",
    "address": "A-791, Bandra Reclamation, Bandra West, Mumbai",
    "phone": "022-26751000",
    "distance_km": null,
    "rating": 4.1,
    "open_now": null,
    "place_id": null,
    "lat": 19.0493,
    "lng": 72.8245,
    "departments": ["Cardiology", "Orthopedics", "Neurology", "Oncology", "General Medicine"]
  },
  {
    "name": "Kokilaben Dhirubhai Ambani Hospital",
    "type": "hospital",
    "address": "Rao Saheb Achutrao Patwardhan Marg, Four Bungalows, Andheri West, Mumbai",
    "phone": "022-30999999",
    "distance_km": null,
    "rating": 4.3,
    "open_now": null,
    "place_id": null,
    "lat": 19.1262,
    "lng": 72.8365,
    "departments": ["Cardiology", "Orthopedics", "Neurology", "Oncology", "Pediatrics", "General Medicine"]
  },
  {
    "name": "Hinduja Hospital",
    "type": "hospital",
    "address": "Veer Savarkar Marg, Mahim West, Mumbai",
    "phone": "022-24452222",
    "distance_km": null,
    "rating": 4.0,
    "open_now": null,
    "place_id": null,
    "lat": 19.0383,
    "lng": 72.8395,
    "departments": ["Cardiology", "Gastroenterology", "Nephrology", "General Medicine"]
  },
  {
    "name": "Breach Candy Hospital",
    "type": "hospital",
    "address": "60A, Bhulabhai Desai Rd, Breach Candy, Mumbai",
    "phone": "022-23667888",
    "distance_km": null,
    "rating": 4.2,
    "open_now": null,
    "place_id": null,
    "lat": 18.9699,
    "lng": 72.8088,
    "departments": ["Cardiology", "Orthopedics", "Gynecology", "General Medicine"]
  },
  {
    "name": "Nanavati Super Speciality Hospital",
    "type": "hospital",
    "address": "S V Rd, Vile Parle West, Mumbai",
    "phone": "022-26177700",
    "distance_km": null,
    "rating": 4.1,
    "open_now": null,
    "place_id": null,
    "lat": 19.0983,
    "lng": 72.8445,
    "departments": ["Cardiology", "Neurology", "Orthopedics", "Oncology", "General Medicine"]
  },
  {
    "name": "Fortis Hospital Mulund",
    "type": "hospital",
    "address": "Mulund Goregaon Link Rd, Nahur West, Mulund, Mumbai",
    "phone": "022-71279900",
    "distance_km": null,
    "rating": 4.0,
    "open_now": null,
    "place_id": null,
    "lat": 19.1726,
    "lng": 72.9591,
    "departments": ["Cardiology", "Orthopedics", "Neurology", "General Medicine"]
  },
  {
    "name": "Wockhardt Hospital",
    "type": "hospital",
    "address": "1877, Dr Anand Rao Nair Marg, Mumbai Central, Mumbai",
    "phone": "022-61784444",
    "distance_km": null,
    "rating": 3.9,
    "open_now": null,
    "place_id": null,
    "lat": 18.9697,
    "lng": 72.8234,
    "departments": ["Cardiology", "Orthopedics", "General Medicine"]
  },
  {
    "name": "Seven Hills Hospital",
    "type": "hospital",
    "address": "Marol Maroshi Rd, Andheri East, Mumbai",
    "phone": "022-67676767",
    "distance_km": null,
    "rating": 3.8,
    "open_now": null,
    "place_id": null,
    "lat": 19.1113,
    "lng": 72.8710,
    "departments": ["Cardiology", "Neurology", "Oncology", "General Medicine"]
  },
  {
    "name": "Zen Multi Speciality Hospital",
    "type": "hospital",
    "address": "425, Linking Rd, Khar West, Mumbai",
    "phone": "022-40021111",
    "distance_km": null,
    "rating": 3.7,
    "open_now": null,
    "place_id": null,
    "lat": 19.0717,
    "lng": 72.8350,
    "departments": ["Orthopedics", "Dermatology", "ENT", "General Medicine"]
  },
  {
    "name": "Holy Family Hospital",
    "type": "hospital",
    "address": "St Andrews Rd, Bandra West, Mumbai",
    "phone": "022-26421111",
    "distance_km": null,
    "rating": 3.9,
    "open_now": null,
    "place_id": null,
    "lat": 19.0573,
    "lng": 72.8279,
    "departments": ["General Medicine", "Gynecology", "Pediatrics", "Orthopedics"]
  },
  {
    "name": "Dr L H Hiranandani Hospital",
    "type": "hospital",
    "address": "Powai, Mumbai",
    "phone": "022-25763300",
    "distance_km": null,
    "rating": 4.0,
    "open_now": null,
    "place_id": null,
    "lat": 19.1164,
    "lng": 72.9080,
    "departments": ["Cardiology", "Orthopedics", "Neurology", "Urology", "General Medicine"]
  },
  {
    "name": "Bombay Hospital",
    "type": "hospital",
    "address": "12, New Marine Lines, Mumbai",
    "phone": "022-22067676",
    "distance_km": null,
    "rating": 4.0,
    "open_now": null,
    "place_id": null,
    "lat": 18.9374,
    "lng": 72.8273,
    "departments": ["Cardiology", "Gastroenterology", "Pulmonology", "General Medicine"]
  }
]
